- model: wakerfarmer.Mill
  pk: 1
  fields:
    name: อุบลอินเตอร์ไรซ์ จำกัด
    lat: 15.153972635336832
    lng: 104.8883519137974
    ownermill: 1
- model: wakerfarmer.Mill
  pk: 2
  fields:
    name: เอกไพบูลย์
    lat: 15.157695498360166
    lng: 104.88763978730394
    ownermill: 1
- model: wakerfarmer.Mill
  pk: 3
  fields:
    name: เทอดไทย
    lat: 15.16038793147989
    lng: 104.88613238583757
    ownermill: 2
- model: wakerfarmer.Mill
  pk: 4
  fields:
    name: โชคประเสริฐเขมราฐ
    lat: 15.953266620294649 
    lng: 105.20259978312251
    ownermill: 3
- model: wakerfarmer.Mill
  pk: 5
  fields:
    name: สหกรณ์การเกษตรตระการ
    lat: 15.55572713709964 
    lng: 104.9927768208074
    ownermill: 4
   
